{
  "affiliates": [
    {
      "id": "1",
      "name": "Motors Taller",
      "open_time": "08:30:00",
      "close_time": "15:30:00",
      "is_full_time_service": false,
      "phone_number": "+1 (555) 123-4567",
      "rating": 4.4,
      "lat": 20.1688,
      "long": -75.1985,
      "address": "1234 Main St, Miami, FL 33101",
      "services":["Cambiar aceite", "Mantenimiento preventivo","Cambio de neumáticos","Alineación y balanceo de neumáticos","Reparación del motor","Diagnóstico y reparación de problemas eléctricos"]
      , "state" : "Florida"


    },
    {
      "id": "2",
      "name": "CarCare Center",
      "open_time": null,
      "close_time": null,
      "is_full_time_service": true,
      "phone_number": "+1 (555) 987-6543",
      "rating": 4.2,
      "lat": 20.0574,
      "long": -75.1531,
      "address": "456 Oak Ave, Tampa, FL 33602",
      "services":["Cambiar aceite", "Mantenimiento preventivo","Cambio de neumáticos","Alineación y balanceo de neumáticos","Reparación del motor","Diagnóstico y reparación de problemas eléctricos"]
      , "state" : "Florida"
    },
    {
      "id": "3",
      "name": "MotorWorks",
      "open_time": "08:00:00",
      "close_time": "16:30:00",
      "is_full_time_service": false,
      "phone_number": "+1 (555) 555-1212",
      "rating": 4.0,
      "lat": 20.2399,
      "long": -75.1838,
      "address": "789 Pine St, Orlando, FL 32801",
      "services":["Cambiar aceite", "Mantenimiento preventivo","Cambio de neumáticos","Alineación y balanceo de neumáticos","Reparación del motor","Diagnóstico y reparación de problemas eléctricos"]
      , "state" : "Florida"
    },
    {
      "id": "4",
      "name": "Precision Auto Repair",
      "open_time": "09:30:00",
      "close_time": "17:00:00",
      "is_full_time_service": false,
      "phone_number": "+1 (555) 888-9999",
      "rating": 4.1,
      "lat": 20.1182,
      "long": -75.1217,
      "address": "1010 Elm St, Jacksonville, FL 32202",
      "services":["Cambiar aceite", "Mantenimiento preventivo","Cambio de neumáticos","Alineación y balanceo de neumáticos","Reparación del motor","Diagnóstico y reparación de problemas eléctricos"]
      , "state" : "Florida"
    },
    {
      "id": "5",
      "name": "The Garage",
      "open_time": "10:30:00",
      "close_time": "18:30:00",
      "is_full_time_service": false,
      "phone_number": "+1 (555) 246-8101",
      "rating": 4.7,
      "lat": 20.1905,
      "long": -75.1882,
      "address": "1111 Maple Ave, St. Petersburg, FL 33701",
      "services":["Cambiar aceite", "Mantenimiento preventivo","Cambio de neumáticos","Alineación y balanceo de neumáticos","Reparación del motor","Diagnóstico y reparación de problemas eléctricos"]
      , "state" : "Florida"
    },
    {
      "id": "6",
      "name": "Expert Auto Care",
      "open_time": null,
      "close_time": null,
      "is_full_time_service": true,
      "phone_number": "+1 (555) 369-1470",
      "rating": 4.9,
      "lat": 20.0981,
      "long": -75.1329,
      "address": "2222 Cedar St, Tallahassee, FL 32301",
      "services":["Cambiar aceite", "Mantenimiento preventivo","Cambio de neumáticos","Alineación y balanceo de neumáticos","Reparación del motor","Diagnóstico y reparación de problemas eléctricos"]
      , "state" : "Florida"
    },
    {
      "id": "7",
      "name": "Quality Car Repair",
      "open_time": "08:30:00",
      "close_time": "15:30:00",
      "is_full_time_service": false,
      "phone_number": "+1 (555) 314-1592",
      "rating": 4.2,
      "lat": 20.2965,
      "long": -75.2111,
      "address": "3333 Birch Ave, Sarasota, FL 34236",
      "services":["Cambiar aceite", "Mantenimiento preventivo","Cambio de neumáticos","Alineación y balanceo de neumáticos","Reparación del motor","Diagnóstico y reparación de problemas eléctricos"]
      , "state" : "Florida"
    },
    {
      "id": "8",
      "name": "ProTech Auto Service",
      "open_time": "6:00:00",
      "close_time": "15:30:00",
      "is_full_time_service": false,
      "phone_number": "+1 (555) 777-8888",
      "rating": 4.8,
      "lat": 20.2309,
      "long": -75.0848,
      "address": "4444 Walnut St, Ft. Lauderdale, FL 33301 ",
      "services":["Cambiar aceite", "Mantenimiento preventivo","Cambio de neumáticos","Alineación y balanceo de neumáticos","Reparación del motor","Diagnóstico y reparación de problemas eléctricos"]
      , "state" : "Florida"
    },
    {
      "id": "9",
      "name": "Master Mechanics",
      "open_time": "09:00:00",
      "close_time": "17:00:00",
      "is_full_time_service": false,
      "phone_number": "+1 (555) 432-1098",
      "rating": 4.3,
      "lat": 20.1603,
      "long": -75.2213,
      "address": "5555 Cherry Ave, Gainesville, FL 32601",
      "services":["Cambiar aceite", "Mantenimiento preventivo","Cambio de neumáticos","Alineación y balanceo de neumáticos","Reparación del motor","Diagnóstico y reparación de problemas eléctricos"]
      , "state" : "Florida"
    },
    {
      "id": "10",
      "name": "Ace Auto Repair",
      "open_time": "08:30:00",
      "close_time": "15:30:00",
      "is_full_time_service": false,
      "phone_number": "+1 (555) 555-5555",
      "rating": 4.7,
      "lat": 20.0844,
      "long": -75.1614,
      "address": "6666 Oak St, Pensacola, FL 32501",
      "services":["Cambiar aceite", "Mantenimiento preventivo","Cambio de neumáticos","Alineación y balanceo de neumáticos","Reparación del motor","Diagnóstico y reparación de problemas eléctricos"]
      , "state" : "Florida"
    }
  ]
}